[
    {
        "id": 1,
        "nombre": "Loja",
        "pais": "Ecuador",
        "region": "Sierra",
        "clima": "Frío",
        "descripcion": "Ciudad cultural y artística",
        "latitud": -3.99313,
        "longitud": -79.20422
    },
    {
        "id": 2,
        "nombre": "Cuenca",
        "pais": "Ecuador",
        "region": "Sierra",
        "clima": "Frío",
        "descripcion": "Ciudad colonial y turística",
        "latitud": -2.90055,
        "longitud": -79.00453
    },
    {
        "id": 3,
        "nombre": "Quito",
        "pais": "Ecuador",
        "region": "Sierra",
        "clima": "Frío",
        "descripcion": "Capital de Ecuador",
        "latitud": -0.18065,
        "longitud": -78.46784
    },
    {
        "id": 4,
        "nombre": "Guayaquil",
        "pais": "Ecuador",
        "region": "Costa",
        "clima": "Cálido",
        "descripcion": "Ciudad portuaria y comercial",
        "latitud": -2.18991,
        "longitud": -79.88911
    },
    {
        "id": 5,
        "nombre": "Manta",
        "pais": "Ecuador",
        "region": "Costa",
        "clima": "Cálido",
        "descripcion": "Ciudad costera y pesquera",
        "latitud": -0.94621,
        "longitud": -80.72892
    },
    {
        "id": 6,
        "nombre": "Ambato",
        "pais": "Ecuador",
        "region": "Sierra",
        "clima": "Frío",
        "descripcion": "Capital de Tungurahua",
        "latitud": -1.24167,
        "longitud": -78.6197
    },
    {
        "id": 7,
        "nombre": "Riobamba",
        "pais": "Ecuador",
        "region": "Sierra",
        "clima": "Frío",
        "descripcion": "Ciudad histórica en la Sierra",
        "latitud": -1.66355,
        "longitud": -78.65464
    },
    {
        "id": 8,
        "nombre": "Ibarra",
        "pais": "Ecuador",
        "region": "Sierra",
        "clima": "Frío",
        "descripcion": "Conocida como la ciudad blanca",
        "latitud": 0.35171,
        "longitud": -78.12223
    },
    {
        "id": 9,
        "nombre": "Esmeraldas",
        "pais": "Ecuador",
        "region": "Costa",
        "clima": "Cálido",
        "descripcion": "Conocida por sus playas",
        "latitud": 0.9592,
        "longitud": -79.65172
    },
    {
        "id": 10,
        "nombre": "Santo Domingo",
        "pais": "Ecuador",
        "region": "Costa",
        "clima": "Cálido",
        "descripcion": "Puerta de entrada a la Costa",
        "latitud": -0.25365,
        "longitud": -79.17016
    },
    {
        "id": 11,
        "nombre": "Machala",
        "pais": "Ecuador",
        "region": "Costa",
        "clima": "Cálido",
        "descripcion": "Capital bananera del mundo",
        "latitud": -3.25861,
        "longitud": -79.95312
    },
    {
        "id": 12,
        "nombre": "Zamora",
        "pais": "Ecuador",
        "region": "Amazonía",
        "clima": "Húmedo",
        "descripcion": "Puerta de entrada a la Amazonía",
        "latitud": -4.06921,
        "longitud": -78.95844
    },
    {
        "id": 13,
        "nombre": "Baños",
        "pais": "Ecuador",
        "region": "Sierra",
        "clima": "Templado",
        "descripcion": "Ciudad turística famosa por sus aguas termales",
        "latitud": -1.39636,
        "longitud": -78.42412
    },
    {
        "id": 14,
        "nombre": "Pelileo",
        "pais": "Ecuador",
        "region": "Sierra",
        "clima": "Templado",
        "descripcion": "Ciudad textil cercana a Ambato",
        "latitud": -1.32836,
        "longitud": -78.53912
    },
    {
        "id": 15,
        "nombre": "Pujilí",
        "pais": "Ecuador",
        "region": "Sierra",
        "clima": "Frío",
        "descripcion": "Ciudad reconocida por su feria de artesanías",
        "latitud": -0.95736,
        "longitud": -78.60312
    }
]