[
    {
        "id": 1,
        "nombre": "Loja",
        "pais": "Ecuador",
        "region": "Sierra",
        "clima": "Frío",
        "descripcion": "Ciudadculturalyartística",
        "latitud": -3.99313,
        "longitud": -79.20422
    },
    {
        "id": 2,
        "nombre": "Cuenca",
        "pais": "Ecuador",
        "region": "Sierra",
        "clima": "Frío",
        "descripcion": "Ciudadcolonialyturística",
        "latitud": -2.90055,
        "longitud": -79.00453
    },
    {
        "id": 3,
        "nombre": "Quito",
        "pais": "Ecuador",
        "region": "Sierra",
        "clima": "Frío",
        "descripcion": "CapitaldeEcuador",
        "latitud": -0.18065,
        "longitud": -78.46784
    },
    {
        "id": 4,
        "nombre": "Guayaquil",
        "pais": "Ecuador",
        "region": "Costa",
        "clima": "Cálido",
        "descripcion": "Ciudadportuariaycomercial",
        "latitud": -2.18991,
        "longitud": -79.88911
    },
    {
        "id": 5,
        "nombre": "Manta",
        "pais": "Ecuador",
        "region": "Costa",
        "clima": "Cálido",
        "descripcion": "Ciudadcosteraypesquera",
        "latitud": -0.94621,
        "longitud": -80.72892
    },
    {
        "id": 6,
        "nombre": "Ambato",
        "pais": "Ecuador",
        "region": "Sierra",
        "clima": "Frío",
        "descripcion": "CapitaldeTungurahua",
        "latitud": -1.24167,
        "longitud": -78.6197
    },
    {
        "id": 7,
        "nombre": "Riobamba",
        "pais": "Ecuador",
        "region": "Sierra",
        "clima": "Frío",
        "descripcion": "CiudadhistóricaenlaSierra",
        "latitud": -1.66355,
        "longitud": -78.65464
    },
    {
        "id": 8,
        "nombre": "Ibarra",
        "pais": "Ecuador",
        "region": "Sierra",
        "clima": "Frío",
        "descripcion": "Conocidacomolaciudadblanca",
        "latitud": 0.35171,
        "longitud": -78.12223
    },
    {
        "id": 9,
        "nombre": "Esmeraldas",
        "pais": "Ecuador",
        "region": "Costa",
        "clima": "Cálido",
        "descripcion": "Conocidaporsusplayas",
        "latitud": 0.9592,
        "longitud": -79.65172
    },
    {
        "id": 10,
        "nombre": "SantoDomingo",
        "pais": "Ecuador",
        "region": "Costa",
        "clima": "Cálido",
        "descripcion": "PuertadeentradaalaCosta",
        "latitud": -0.25365,
        "longitud": -79.17016
    },
    {
        "id": 11,
        "nombre": "Machala",
        "pais": "Ecuador",
        "region": "Costa",
        "clima": "Cálido",
        "descripcion": "Capitalbananeradelmundo",
        "latitud": -3.25861,
        "longitud": -79.95312
    },
    {
        "id": 12,
        "nombre": "Zamora",
        "pais": "Ecuador",
        "region": "Amazonía",
        "clima": "Húmedo",
        "descripcion": "PuertadeentradaalaAmazonía",
        "latitud": -4.06921,
        "longitud": -78.95844
    },
    {
        "id": 13,
        "nombre": "Baños",
        "pais": "Ecuador",
        "region": "Sierra",
        "clima": "Templado",
        "descripcion": "Ciudadturísticafamosaporsusaguastermales",
        "latitud": -1.39636,
        "longitud": -78.42412
    },
    {
        "id": 14,
        "nombre": "Pelileo",
        "pais": "Ecuador",
        "region": "Sierra",
        "clima": "Templado",
        "descripcion": "CiudadtextilcercanaaAmbato",
        "latitud": -1.32836,
        "longitud": -78.53912
    },
    {
        "id": 15,
        "nombre": "Pujilí",
        "pais": "Ecuador",
        "region": "Sierra",
        "clima": "Frío",
        "descripcion": "Ciudadreconocidaporsuferiadeartesanías",
        "latitud": -0.95736,
        "longitud": -78.60312
    },
    {
        "id": 16,
        "nombre": "prueba",
        "pais": "ec",
        "region": "sierra",
        "clima": "calido",
        "descripcion": "no",
        "latitud": 2.0,
        "longitud": 2.0
    }
]