[
    {
        "id": 1,
        "nombre": "Loja",
        "pais": "Ecuador",
        "region": "Sierra",
        "clima": "Frío",
        "descripcion": "Ciudadculturalyartística",
        "latitud": -3.99313,
        "longitud": -79.20422
    },
    {
        "id": 2,
        "nombre": "Cuenca",
        "pais": "Ecuador",
        "region": "Sierra",
        "clima": "Frío",
        "descripcion": "Ciudadcolonialyturística",
        "latitud": -2.90055,
        "longitud": -79.00453
    },
    {
        "id": 3,
        "nombre": "Quito",
        "pais": "Ecuador",
        "region": "Sierra",
        "clima": "Frío",
        "descripcion": "CapitaldeEcuador",
        "latitud": -0.18065,
        "longitud": -78.46784
    },
    {
        "id": 4,
        "nombre": "Guayaquil",
        "pais": "Ecuador",
        "region": "Costa",
        "clima": "Cálido",
        "descripcion": "Ciudadportuariaycomercial",
        "latitud": -2.18991,
        "longitud": -79.88911
    },
    {
        "id": 5,
        "nombre": "Manta",
        "pais": "Ecuador",
        "region": "Costa",
        "clima": "Cálido",
        "descripcion": "Ciudadcosteraypesquera",
        "latitud": -0.94621,
        "longitud": -80.72892
    },
    {
        "id": 6,
        "nombre": "Ambato",
        "pais": "Ecuador",
        "region": "Sierra",
        "clima": "Frío",
        "descripcion": "CapitaldeTungurahua",
        "latitud": -1.24167,
        "longitud": -78.6197
    },
    {
        "id": 7,
        "nombre": "Riobamba",
        "pais": "Ecuador",
        "region": "Sierra",
        "clima": "Frío",
        "descripcion": "CiudadhistóricaenlaSierra",
        "latitud": -1.66355,
        "longitud": -78.65464
    },
    {
        "id": 8,
        "nombre": "Ibarra",
        "pais": "Ecuador",
        "region": "Sierra",
        "clima": "Frío",
        "descripcion": "Conocidacomolaciudadblanca",
        "latitud": 0.35171,
        "longitud": -78.12223
    },
    {
        "id": 9,
        "nombre": "Esmeraldas",
        "pais": "Ecuador",
        "region": "Costa",
        "clima": "Cálido",
        "descripcion": "Conocidaporsusplayas",
        "latitud": 0.9592,
        "longitud": -79.65172
    },
    {
        "id": 10,
        "nombre": "Portoviejo",
        "pais": "Ecuador",
        "region": "Costa",
        "clima": "Cálido",
        "descripcion": "CapitaldeManabí",
        "latitud": -1.05457,
        "longitud": -80.45445
    },
    {
        "id": 11,
        "nombre": "Machala",
        "pais": "Ecuador",
        "region": "Costa",
        "clima": "Cálido",
        "descripcion": "Capitalbananeradelmundo",
        "latitud": -3.25861,
        "longitud": -79.95312
    },
    {
        "id": 12,
        "nombre": "SantoDomingo",
        "pais": "Ecuador",
        "region": "Costa",
        "clima": "Cálido",
        "descripcion": "PuertadeentradaalaCosta",
        "latitud": -0.25365,
        "longitud": -79.17016
    },
    {
        "id": 13,
        "nombre": "Tulcán",
        "pais": "Ecuador",
        "region": "Sierra",
        "clima": "Frío",
        "descripcion": "CiudadfronterizaconColombia",
        "latitud": 0.81156,
        "longitud": -77.71771
    },
    {
        "id": 14,
        "nombre": "Latacunga",
        "pais": "Ecuador",
        "region": "Sierra",
        "clima": "Frío",
        "descripcion": "CiudadcercanaalvolcánCotopaxi",
        "latitud": -0.93333,
        "longitud": -78.61667
    },
    {
        "id": 15,
        "nombre": "SantaElena",
        "pais": "Ecuador",
        "region": "Costa",
        "clima": "Cálido",
        "descripcion": "Famosaporsusplayas",
        "latitud": -2.23327,
        "longitud": -80.85957
    },
    {
        "id": 16,
        "nombre": "Otavalo",
        "pais": "Ecuador",
        "region": "Sierra",
        "clima": "Frío",
        "descripcion": "Famosaporsumercadoindígena",
        "latitud": 0.23122,
        "longitud": -78.26187
    },
    {
        "id": 17,
        "nombre": "Cayambe",
        "pais": "Ecuador",
        "region": "Sierra",
        "clima": "Frío",
        "descripcion": "Conocidaporsusbizcochos",
        "latitud": 0.0419,
        "longitud": -78.14075
    },
    {
        "id": 18,
        "nombre": "Zamora",
        "pais": "Ecuador",
        "region": "Amazonía",
        "clima": "Húmedo",
        "descripcion": "PuertadeentradaalaAmazonía",
        "latitud": -4.06921,
        "longitud": -78.95844
    },
    {
        "id": 19,
        "nombre": "Tena",
        "pais": "Ecuador",
        "region": "Amazonía",
        "clima": "Húmedo",
        "descripcion": "CapitaldeNapo",
        "latitud": -0.99636,
        "longitud": -77.81203
    },
    {
        "id": 20,
        "nombre": "NuevaLoja",
        "pais": "Ecuador",
        "region": "Amazonía",
        "clima": "Húmedo",
        "descripcion": "ConocidacomoLagoAgrio",
        "latitud": 0.08517,
        "longitud": -76.89499
    },
    {
        "id": 21,
        "nombre": "Puyo",
        "pais": "Ecuador",
        "region": "Amazonía",
        "clima": "Húmedo",
        "descripcion": "CapitaldePastaza",
        "latitud": -1.49294,
        "longitud": -78.00284
    },
    {
        "id": 22,
        "nombre": "SanCristóbal",
        "pais": "Ecuador",
        "region": "Galápagos",
        "clima": "Cálido",
        "descripcion": "IslaenGalápagos",
        "latitud": -0.90103,
        "longitud": -89.60944
    },
    {
        "id": 23,
        "nombre": "Bogotá",
        "pais": "Colombia",
        "region": "Andina",
        "clima": "Frío",
        "descripcion": "CapitaldeColombia",
        "latitud": 4.60971,
        "longitud": -74.08175
    },
    {
        "id": 24,
        "nombre": "Lima",
        "pais": "Perú",
        "region": "Costa",
        "clima": "Húmedo",
        "descripcion": "CapitaldePerú",
        "latitud": -12.04637,
        "longitud": -77.04279
    },
    {
        "id": 25,
        "nombre": "BuenosAires",
        "pais": "Argentina",
        "region": "Pampa",
        "clima": "Templado",
        "descripcion": "CapitaldeArgentina",
        "latitud": -34.60368,
        "longitud": -58.38156
    },
    {
        "id": 26,
        "nombre": "Santiago",
        "pais": "Chile",
        "region": "Central",
        "clima": "Templado",
        "descripcion": "CapitaldeChile",
        "latitud": -33.44889,
        "longitud": -70.66927
    },
    {
        "id": 27,
        "nombre": "prueba 1",
        "pais": "ec",
        "region": "sierra",
        "clima": "fadsf",
        "descripcion": "asdfad",
        "latitud": 2.0,
        "longitud": 2.0
    }
]